{
	"SearchTerm": "Airport Marina",
	"Dealers": [{
		"DealerNumber": "206534",
		"Name": "Scott Robinson Honda",
		"InternetManager": "",
		"Address": "20340 Hawthorne Blvd",
		"City": "Torrance",
		"State": "CA",
		"ZipCode": "90503-2402",
		"Phone": "(310)371-3521",
		"SalesHours": [],
		"WebAddress": "http://www.scottrobinsonhonda.com",
		"Latitude": 33.847366,
		"Longitude": -118.35357,
		"DrivingDistanceMiles": 5.5
	}, {
		"DealerNumber": "207325",
		"Name": "DCH Gardena Honda",
		"InternetManager": "",
		"Address": "15541 S Western Ave",
		"City": "Gardena",
		"State": "CA",
		"ZipCode": "90249-4320",
		"Phone": "(310)515-5700",
		"SalesHours": [],
		"WebAddress": "http://www.gardenahonda.com",
		"Latitude": 33.888851,
		"Longitude": -118.30943,
		"DrivingDistanceMiles": 5.5
	}, {
		"DealerNumber": "208188",
		"Name": "Airport Marina Honda",
		"InternetManager": "",
		"Address": "5850 W Centinela Ave",
		"City": "Los Angeles",
		"State": "CA",
		"ZipCode": "90045-1504",
		"Phone": "(310) 649-2440",
		"SalesHours": [],
		"WebAddress": "http://www.amhonda.com",
		"Latitude": 33.976578,
		"Longitude": -118.38422,
		"DrivingDistanceMiles": 7.1
	}]
}